metro,provider,name,lat,lon
"Buenos Aires , Argentina",Amazon Web Services, us-east-1-bue-1a,-34.61787,-58.47748
"Brisbane , Australia",Amazon Web Services, ap-southeast-2-bne-1a,-27.46794,153.02809
"Melbourne , Australia",Google Cloud, mel-zone1-1988,-37.814,144.96332
"Melbourne , Australia",Google Cloud, mel-zone1-4843,-37.814,144.96332
"Perth , Australia",Amazon Web Services, ap-southeast-2-per-1a,-31.95224,115.8614
"Sydney , Australia",Google Cloud, syd-zone1-1660,-33.86785,151.20732
"Sydney , Australia",Google Cloud, syd-zone1-1605,-33.86785,151.20732
"Vienna , Austria",Amazon Web Services, eu-central-1-vie-1a,48.20849,16.37208
"Brussels , Belgium",Amazon Web Services, eu-west-3-bru-1a,50.85045,4.34878
"Rio de Janeiro , Brazil",Amazon Web Services, us-east-1-rio-1a,-22.90642,-43.18223
"São Paulo , Brazil",Google Cloud, gru-zone1-1057,-23.5475,-46.63611
"São Paulo , Brazil",Google Cloud, gru-zone1-165,-23.5475,-46.63611
"São Paulo , Brazil",Google Cloud, gru-zone1-7580,-23.5475,-46.63611
"London , Canada",Google Cloud, lhr-zone1-47,42.98339,-81.23304
"London , Canada",Google Cloud, lhr-zone1-832,42.98339,-81.23304
"Montreal , Canada",Google Cloud, yul-zone1-1944,45.50884,-73.58781
"Toronto , Canada",Amazon Web Services, ca-central-1-yto-1a,43.70011,-79.4163
"Toronto , Canada",Google Cloud, yyz-zone1-2206,43.70011,-79.4163
"Toronto , Canada",Google Cloud, yyz-zone1-392,43.70011,-79.4163
"Vancouver , Canada",Amazon Web Services, ca-central-1-yvr-1a,49.24966,-123.11934
"Santiago , Chile",Amazon Web Services, us-east-1-scl-1a,-33.45694,-70.64827
"Santiago , Chile",Google Cloud, scl-zone1-1779,-33.45694,-70.64827
"Hong Kong , China",Google Cloud, hkg-zone1-225,22.27832,114.17469
"Hong Kong , China",Google Cloud, hkg-zone1-1118,22.27832,114.17469
"Bogotá , Colombia",Amazon Web Services, us-east-1-bog-1a,4.60971,-74.08175
"Prague , Czech Republic",Amazon Web Services, eu-central-1-prg-1a,50.08804,14.42076
"Copenhagen , Denmark",Amazon Web Services, eu-north-1-cph-1a,55.67594,12.56553
"Helsinki , Finland",Amazon Web Services, eu-north-1-hel-1a,60.16952,24.93545
"Helsinki , Finland",Google Cloud, hem-zone1-7098,60.16952,24.93545
"Helsinki , Finland",Google Cloud, hem-zone1-8128,60.16952,24.93545
"Paris , France",Google Cloud, cdg-zone1-1536,48.85341,2.3488
"Paris , France",Google Cloud, cdg-zone1-181,48.85341,2.3488
"Paris , France",Google Cloud, cdg-zone1-3342,48.85341,2.3488
"Paris , France",Google Cloud, cdg-zone1-53,48.85341,2.3488
"Berlin , Germany",Amazon Web Services, eu-central-1-ber-1a,52.52437,13.41053
"Frankfurt , Germany",Google Cloud, fra-zone1-58,50.11552,8.68417
"Frankfurt , Germany",Google Cloud, fra-zone1-277,50.11552,8.68417
"Frankfurt , Germany",Google Cloud, fra-zone1-683,50.11552,8.68417
"Hamburg , Germany",Amazon Web Services, eu-central-1-ham-1a,53.55073,9.99302
"Munich , Germany",Amazon Web Services, eu-central-1-muc-1a,48.13743,11.57549
"Athens , Greece",Amazon Web Services, eu-south-1-ath-1a,37.98376,23.72784
"Bangalore , India",Amazon Web Services, ap-south-2-blr-1a,12.97194,77.59369
"Chennai , India",Amazon Web Services, ap-south-2-maa-1a,13.08784,80.27847
"Delhi , India",Amazon Web Services, ap-south-1-del-1a,28.65195,77.23149
"Delhi , India",Google Cloud, del-zone1-1622,28.65195,77.23149
"Delhi , India",Google Cloud, del-zone1-2411,28.65195,77.23149
"Kolkata , India",Amazon Web Services, ap-south-1-ccu-1a,22.56263,88.36304
"Mumbai , India",Google Cloud, bom-zone1-2310,19.07283,72.88261
"Mumbai , India",Google Cloud, bom-zone1-554,19.07283,72.88261
"Jakarta , Indonesia",Google Cloud, cgk-zone1-5865,-6.21462,106.84513
"Jakarta , Indonesia",Google Cloud, cgk-zone1-8168,-6.21462,106.84513
"Tel Aviv , Israel",Google Cloud, tlv-zone1-99030,32.08088,34.78057
"Tel Aviv , Israel",Google Cloud, tlv-zone1-99047,32.08088,34.78057
"Milan , Italy",Google Cloud, mil-zone1-1974,45.46427,9.18951
"Milan , Italy",Google Cloud, mil-zone1-3348,45.46427,9.18951
"Milan , Italy",Google Cloud, mil-zone1-99013,45.46427,9.18951
"Milan , Italy",Google Cloud, mil-zone1-99034,45.46427,9.18951
"Osaka , Japan",Google Cloud, kix-zone1-1791,34.69374,135.50218
"Osaka , Japan",Google Cloud, kix-zone1-2072,34.69374,135.50218
"Tokyo , Japan",Google Cloud, nrt-zone1-452,35.6895,139.69171
"Tokyo , Japan",Google Cloud, nrt-zone1-738,35.6895,139.69171
"Tokyo , Japan",Google Cloud, nrt-zone1-1893,35.6895,139.69171
"Nairobi , Kenya",Amazon Web Services, af-south-1-nbo-1a,-1.28333,36.81667
"Querétaro , Mexico",Amazon Web Services, us-east-1-qro-1a,20.58806,-100.38806
"Amsterdam , Netherlands",Amazon Web Services, eu-central-1-ams-1a,52.37403,4.88969
"Amsterdam , Netherlands",Google Cloud, ams-zone1-1236,52.37403,4.88969
"Amsterdam , Netherlands",Google Cloud, ams-zone1-1320,52.37403,4.88969
"Auckland , New Zealand",Amazon Web Services, ap-southeast-2-akl-1a,-36.84853,174.76349
"Lagos , Nigeria",Amazon Web Services, af-south-1-los-1a,6.45407,3.39467
"Oslo , Norway",Amazon Web Services, eu-north-1-osl-1a,59.91273,10.74609
"Muscat , Oman",Amazon Web Services, me-south-1-mct-1a,21.0,57.0
"Lima , Peru",Amazon Web Services, us-east-1-lim-1a,-12.04318,-77.02824
"Manila , Philippines",Amazon Web Services, ap-southeast-1-mnl-1a,14.6042,120.9822
"Warsaw , Poland",Amazon Web Services, eu-central-1-waw-1a,52.22977,21.01178
"Warsaw , Poland",Google Cloud, waw-zone1-2570,52.22977,21.01178
"Warsaw , Poland",Google Cloud, waw-zone1-509,52.22977,21.01178
"Lisbon , Portugal",Amazon Web Services, eu-south-2-lis-1a,38.71667,-9.13333
"Singapore , Singapore",Google Cloud, sin-zone1-388,1.36667,103.8
"Singapore , Singapore",Google Cloud, sin-zone1-2260,1.36667,103.8
"Johannesburg , South Africa",Amazon Web Services, af-south-1-jnb-1a,-26.20227,28.04363
"Seoul , South Korea",Google Cloud, icn-zone1-3829,37.566,126.9784
"Seoul , South Korea",Google Cloud, icn-zone1-7573,37.566,126.9784
"Seoul , South Korea",Google Cloud, icn-zone1-7574,37.566,126.9784
"Seoul , South Korea",Google Cloud, icn-zone1-7674,37.566,126.9784
"Madrid , Spain",Google Cloud, mad-zone1-127,40.4165,-3.70256
"Madrid , Spain",Google Cloud, mad-zone1-130,40.4165,-3.70256
"Zürich , Switzerland",Google Cloud, zrh-zone1-81,47.36667,8.55
"Zürich , Switzerland",Google Cloud, zrh-zone1-1086,47.36667,8.55
"Taipei , Taiwan",Amazon Web Services, ap-northeast-1-tpe-1a,25.04776,121.53185
"Taipei , Taiwan",Google Cloud, tsa-zone1-456,25.04776,121.53185
"Taipei , Taiwan",Google Cloud, tsa-zone1-99004,25.04776,121.53185
"Taipei , Taiwan",Google Cloud, tsa-zone1-2886,25.04776,121.53185
"Bangkok , Thailand",Amazon Web Services, ap-southeast-1-bkk-1a,13.75398,100.50144
"Atlanta , United States",Amazon Web Services, us-east-1-atl-1a,33.749,-84.38798
"Atlanta , United States",Google Cloud, dfw-zone1-4,33.749,-84.38798
"Boston , United States",Amazon Web Services, us-east-1-bos-1a,42.35843,-71.05977
"Chicago , United States",Amazon Web Services, us-east-1-chi-1a,41.85003,-87.65005
"Columbus , United States",Google Cloud, cmh-zone1-2377,39.96118,-82.99879
"Council Bluffs , United States",Google Cloud, cbf-zone1-575,41.26194,-95.86083
"Dallas , United States",Amazon Web Services, us-east-1-dfw-1a,32.78306,-96.80667
"Denver , United States",Amazon Web Services, us-west-2-den-1a,39.73915,-104.9847
"Fresno , United States",Amazon Web Services, us-west-2-pdx-1a,36.74773,-119.77237
"Houston , United States",Amazon Web Services, us-east-1-iah-1a,29.76328,-95.36327
"Kansas City , United States",Amazon Web Services, us-east-1-mci-1a,39.09973,-94.57857
"Las Vegas , United States",Amazon Web Services, us-west-2-las-1a,36.17497,-115.13722
"Las Vegas , United States",Google Cloud, las-zone1-770,36.17497,-115.13722
"Los Angeles , United States",Amazon Web Services, us-west-2-lax-1a,34.05223,-118.24368
"Los Angeles , United States",Google Cloud, lax-zone1-8,34.05223,-118.24368
"Los Angeles , United States",Google Cloud, lax-zone1-19,34.05223,-118.24368
"Los Angeles , United States",Google Cloud, lax-zone1-403,34.05223,-118.24368
"Los Angeles , United States",Google Cloud, lax-zone1-333,34.05223,-118.24368
"Miami , United States",Amazon Web Services, us-east-1-mia-1a,25.77427,-80.19366
"Minneapolis-St. Paul , United States",Amazon Web Services, us-east-1-msp-1a,45.10336,-93.27531
"New York , United States",Amazon Web Services, us-east-1-nyc-1a,40.71427,-74.00597
"Philadelphia , United States",Amazon Web Services, us-east-1-phl-1a,39.95238,-75.16362
"Phoenix , United States",Amazon Web Services, us-west-2-phx-1a,33.44838,-112.07404
"Portland , United States",Google Cloud, pdx-zone1-1922,45.52345,-122.67621
"Salt Lake City , United States",Google Cloud, slc-zone1-99001,40.76078,-111.89105
"Seattle , United States",Amazon Web Services, us-west-2-sea-1a,47.60621,-122.33207
"Washington , United States",Google Cloud, iad-zone1-1,38.89511,-77.03637
"Washington , United States",Google Cloud, iad-zone1-5467,38.89511,-77.03637
"Hanoi , Vietnam",Amazon Web Services, ap-southeast-1-han-1a,21.0245,105.84117
